[
    {
        "id": 1,
        "name": "Porta Nolana",
        "description": "Stazione di Porta Nolana, capolinea delle linee Circumvesuviana.",
        "latitude": 40.8521,
        "longitude": 14.2728,
        "image": "https://raw.githubusercontent.com/dreamwhite/cv-train-app-data/master/images/1.png"
    },
    {
        "id": 3,
        "name": "Garibaldi",
        "description": "Stazione di Garibaldi, connessa alla metropolitana di Napoli.",
        "latitude": 40.8595,
        "longitude": 14.2728,
        "image": "https://raw.githubusercontent.com/dreamwhite/cv-train-app-data/master/images/3.png"
    },
    {
        "id": 4,
        "name": "Via Gianturco",
        "description": "Stazione di Via Gianturco.",
        "latitude": 40.8432,
        "longitude": 14.2748,
        "image": "https://raw.githubusercontent.com/dreamwhite/cv-train-app-data/master/images/4.png"
    },
    {
        "id": 5,
        "name": "San Giovanni a Teduccio",
        "description": "Stazione di San Giovanni a Teduccio.",
        "latitude": 40.8521,
        "longitude": 14.3000,
        "image": "https://raw.githubusercontent.com/dreamwhite/cv-train-app-data/master/images/5.png"
    },
    {
        "id": 6,
        "name": "Barra",
        "description": "Stazione di Barra.",
        "latitude": 40.8522,
        "longitude": 14.3001,
        "image": "https://raw.githubusercontent.com/dreamwhite/cv-train-app-data/master/images/6.png"
    },
    {
        "id": 7,
        "name": "Ponticelli",
        "description": "Stazione di Ponticelli.",
        "latitude": 40.8523,
        "longitude": 14.3002,
        "image": "https://raw.githubusercontent.com/dreamwhite/cv-train-app-data/master/images/7.png"
    },
    {
        "id": 8,
        "name": "Cercola",
        "description": "Stazione di Cercola.",
        "latitude": 40.8524,
        "longitude": 14.3003,
        "image": "https://raw.githubusercontent.com/dreamwhite/cv-train-app-data/master/images/8.png"
    },
    {
        "id": 9,
        "name": "Pollena",
        "description": "Stazione di Pollena.",
        "latitude": 40.8525,
        "longitude": 14.3004,
        "image": "https://raw.githubusercontent.com/dreamwhite/cv-train-app-data/master/images/9.png"
    },
    {
        "id": 10,
        "name": "Guindazzi",
        "description": "Stazione di Guindazzi.",
        "latitude": 40.8526,
        "longitude": 14.3005,
        "image": "https://raw.githubusercontent.com/dreamwhite/cv-train-app-data/master/images/10.png"
    },
    {
        "id": 11,
        "name": "Madonna dell'Arco",
        "description": "Stazione di Madonna dell'Arco.",
        "latitude": 40.8527,
        "longitude": 14.3006,
        "image": "https://raw.githubusercontent.com/dreamwhite/cv-train-app-data/master/images/11.png"
    },
    {
        "id": 12,
        "name": "Sant'Anastasia",
        "description": "Stazione di Sant'Anastasia.",
        "latitude": 40.8528,
        "longitude": 14.3007,
        "image": "https://raw.githubusercontent.com/dreamwhite/cv-train-app-data/master/images/12.png"
    },
    {
        "id": 13,
        "name": "Villa Augustea",
        "description": "Stazione di Villa Augustea.",
        "latitude": 40.8529,
        "longitude": 14.3008,
        "image": "https://raw.githubusercontent.com/dreamwhite/cv-train-app-data/master/images/13.png"
    },
    {
        "id": 14,
        "name": "Somma Vesuviana",
        "description": "Stazione di Somma Vesuviana.",
        "latitude": 40.8530,
        "longitude": 14.3009,
        "image": "https://raw.githubusercontent.com/dreamwhite/cv-train-app-data/master/images/14.png"
    },
    {
        "id": 15,
        "name": "Rione Trieste",
        "description": "Stazione di Rione Trieste.",
        "latitude": 40.8531,
        "longitude": 14.3010,
        "image": "https://raw.githubusercontent.com/dreamwhite/cv-train-app-data/master/images/15.png"
    },
    {
        "id": 16,
        "name": "Ottaviano",
        "description": "Stazione di Ottaviano.",
        "latitude": 40.8532,
        "longitude": 14.3011,
        "image": "https://raw.githubusercontent.com/dreamwhite/cv-train-app-data/master/images/16.png"
    },
    {
        "id": 17,
        "name": "San Leonardo",
        "description": "Stazione di San Leonardo.",
        "latitude": 40.8533,
        "longitude": 14.3012,
        "image": "https://raw.githubusercontent.com/dreamwhite/cv-train-app-data/master/images/17.png"
    },
    {
        "id": 18,
        "name": "San Giuseppe",
        "description": "Stazione di San Giuseppe.",
        "latitude": 40.8534,
        "longitude": 14.3013,
        "image": "https://raw.githubusercontent.com/dreamwhite/cv-train-app-data/master/images/18.png"
    },
    {
        "id": 19,
        "name": "Casilli",
        "description": "Stazione di Casilli.",
        "latitude": 40.8535,
        "longitude": 14.3014,
        "image": "https://raw.githubusercontent.com/dreamwhite/cv-train-app-data/master/images/19.png"
    },
    {
        "id": 20,
        "name": "Terzigno",
        "description": "Stazione di Terzigno.",
        "latitude": 40.8536,
        "longitude": 14.3015,
        "image": "https://raw.githubusercontent.com/dreamwhite/cv-train-app-data/master/images/20.png"
    },
    {
        "id": 21,
        "name": "Flocco",
        "description": "Stazione di Flocco.",
        "latitude": 40.8537,
        "longitude": 14.3016,
        "image": "https://raw.githubusercontent.com/dreamwhite/cv-train-app-data/master/images/21.png"
    },
    {
        "id": 22,
        "name": "Poggiomarino",
        "description": "Stazione di Poggiomarino.",
        "latitude": 40.8538,
        "longitude": 14.3017,
        "image": "https://raw.githubusercontent.com/dreamwhite/cv-train-app-data/master/images/22.png"
    },
    {
        "id": 23,
        "name": "Striano",
        "description": "Stazione di Striano.",
        "latitude": 40.8539,
        "longitude": 14.3018,
        "image": "https://raw.githubusercontent.com/dreamwhite/cv-train-app-data/master/images/23.png"
    },
    {
        "id": 24,
        "name": "San Valentino",
        "description": "Stazione di San Valentino.",
        "latitude": 40.8540,
        "longitude": 14.3019,
        "image": "https://raw.githubusercontent.com/dreamwhite/cv-train-app-data/master/images/24.png"
    },
    {
        "id": 25,
        "name": "Sarno",
        "description": "Stazione di Sarno.",
        "latitude": 40.8541,
        "longitude": 14.3020,
        "image": "https://raw.githubusercontent.com/dreamwhite/cv-train-app-data/master/images/25.png"
    },
    {
        "id": 26,
        "name": "Santa Maria del Pozzo",
        "description": "Stazione di Santa Maria del Pozzo.",
        "latitude": 40.8542,
        "longitude": 14.3021,
        "image": "https://raw.githubusercontent.com/dreamwhite/cv-train-app-data/master/images/26.png"
    },
    {
        "id": 27,
        "name": "San Giorgio a Cremano",
        "description": "Stazione di San Giorgio a Cremano.",
        "latitude": 40.8543,
        "longitude": 14.3022,
        "image": "https://raw.githubusercontent.com/dreamwhite/cv-train-app-data/master/images/27.png"
    },
    {
        "id": 28,
        "name": "Cavalli di Bronzo",
        "description": "Stazione di Cavalli di Bronzo.",
        "latitude": 40.8544,
        "longitude": 14.3023,
        "image": "https://raw.githubusercontent.com/dreamwhite/cv-train-app-data/master/images/28.png"
    },
    {
        "id": 29,
        "name": "Portici Bellavista",
        "description": "Stazione di Portici Bellavista.",
        "latitude": 40.8545,
        "longitude": 14.3024,
        "image": "https://raw.githubusercontent.com/dreamwhite/cv-train-app-data/master/images/29.png"
    },
    {
        "id": 30,
        "name": "Portici via Libertà",
        "description": "Stazione di Portici via Libertà.",
        "latitude": 40.8546,
        "longitude": 14.3025,
        "image": "https://raw.githubusercontent.com/dreamwhite/cv-train-app-data/master/images/30.png"
    },
    {
        "id": 31,
        "name": "Ercolano Scavi",
        "description": "Stazione di Ercolano Scavi.",
        "latitude": 40.8547,
        "longitude": 14.3026,
        "image": "https://raw.githubusercontent.com/dreamwhite/cv-train-app-data/master/images/31.png"
    },
    {
        "id": 32,
        "name": "Ercolano Miglio d'Oro",
        "description": "Stazione di Ercolano Miglio d'Oro.",
        "latitude": 40.8548,
        "longitude": 14.3027,
        "image": "https://raw.githubusercontent.com/dreamwhite/cv-train-app-data/master/images/32.png"
    },
    {
        "id": 33,
        "name": "Torre del Greco",
        "description": "Stazione di Torre del Greco.",
        "latitude": 40.8549,
        "longitude": 14.3028,
        "image": "https://raw.githubusercontent.com/dreamwhite/cv-train-app-data/master/images/33.png"
    },
    {
        "id": 34,
        "name": "Via Sant'Antonio",
        "description": "Stazione di Via Sant'Antonio.",
        "latitude": 40.8550,
        "longitude": 14.3029,
        "image": "https://raw.githubusercontent.com/dreamwhite/cv-train-app-data/master/images/34.png"
    },
    {
        "id": 35,
        "name": "Via del Monte",
        "description": "Stazione di Via del Monte.",
        "latitude": 40.8551,
        "longitude": 14.3030,
        "image": "https://raw.githubusercontent.com/dreamwhite/cv-train-app-data/master/images/35.png"
    },
    {
        "id": 37,
        "name": "Villa delle Ginestre",
        "description": "Stazione di Villa delle Ginestre.",
        "latitude": 40.8552,
        "longitude": 14.3031,
        "image": "https://raw.githubusercontent.com/dreamwhite/cv-train-app-data/master/images/37.png"
    },
    {
        "id": 38,
        "name": "Leopardi",
        "description": "Stazione di Leopardi.",
        "latitude": 40.8553,
        "longitude": 14.3032,
        "image": "https://raw.githubusercontent.com/dreamwhite/cv-train-app-data/master/images/38.png"
    },
    {
        "id": 40,
        "name": "Trecase",
        "description": "Stazione di Trecase.",
        "latitude": 40.8554,
        "longitude": 14.3033,
        "image": "https://raw.githubusercontent.com/dreamwhite/cv-train-app-data/master/images/40.png"
    },
    {
        "id": 41,
        "name": "Torre Annunziata - Oplonti",
        "description": "Stazione di Torre Annunziata - Oplonti.",
        "latitude": 40.8555,
        "longitude": 14.3034,
        "image": "https://raw.githubusercontent.com/dreamwhite/cv-train-app-data/master/images/41.png"
    },
    {
        "id": 42,
        "name": "Boscotrecase",
        "description": "Stazione di Boscotrecase.",
        "latitude": 40.8556,
        "longitude": 14.3035,
        "image": "https://raw.githubusercontent.com/dreamwhite/cv-train-app-data/master/images/42.png"
    },
    {
        "id": 43,
        "name": "Boscoreale",
        "description": "Stazione di Boscoreale.",
        "latitude": 40.8557,
        "longitude": 14.3036,
        "image": "https://raw.githubusercontent.com/dreamwhite/cv-train-app-data/master/images/43.png"
    },
    {
        "id": 44,
        "name": "Villa Regina",
        "description": "Stazione di Villa Regina.",
        "latitude": 40.8558,
        "longitude": 14.3037,
        "image": "https://raw.githubusercontent.com/dreamwhite/cv-train-app-data/master/images/44.png"
    },
    {
        "id": 45,
        "name": "Pompei Santuario",
        "description": "Stazione di Pompei Santuario.",
        "latitude": 40.8559,
        "longitude": 14.3038,
        "image": "https://raw.githubusercontent.com/dreamwhite/cv-train-app-data/master/images/45.png"
    },
    {
        "id": 46,
        "name": "Scafati",
        "description": "Stazione di Scafati.",
        "latitude": 40.8560,
        "longitude": 14.3039,
        "image": "https://raw.githubusercontent.com/dreamwhite/cv-train-app-data/master/images/46.png"
    },
    {
        "id": 47,
        "name": "San Pietro",
        "description": "Stazione di San Pietro.",
        "latitude": 40.8561,
        "longitude": 14.3040,
        "image": "https://raw.githubusercontent.com/dreamwhite/cv-train-app-data/master/images/47.png"
    },
    {
        "id": 48,
        "name": "Via Cangiani",
        "description": "Stazione di Via Cangiani.",
        "latitude": 40.8562,
        "longitude": 14.3041,
        "image": "https://raw.githubusercontent.com/dreamwhite/cv-train-app-data/master/images/48.png"
    },
    {
        "id": 49,
        "name": "Pompei scavi - Villa dei Misteri",
        "description": "Stazione di Pompei scavi - Villa dei Misteri.",
        "latitude": 40.8563,
        "longitude": 14.3042,
        "image": "https://raw.githubusercontent.com/dreamwhite/cv-train-app-data/master/images/49.png"
    },
    {
        "id": 51,
        "name": "Pioppaino",
        "description": "Stazione di Pioppaino.",
        "latitude": 40.8564,
        "longitude": 14.3043,
        "image": "https://raw.githubusercontent.com/dreamwhite/cv-train-app-data/master/images/51.png"
    },
    {
        "id": 52,
        "name": "Via Nocera",
        "description": "Stazione di Via Nocera.",
        "latitude": 40.8565,
        "longitude": 14.3044,
        "image": "https://raw.githubusercontent.com/dreamwhite/cv-train-app-data/master/images/52.png"
    },
    {
        "id": 53,
        "name": "Castellammare di Stabia",
        "description": "Stazione di Castellammare di Stabia.",
        "latitude": 40.8566,
        "longitude": 14.3045,
        "image": "https://raw.githubusercontent.com/dreamwhite/cv-train-app-data/master/images/53.png"
    },
    {
        "id": 57,
        "name": "Vico Equense",
        "description": "Stazione di Vico Equense.",
        "latitude": 40.8567,
        "longitude": 14.3046,
        "image": "https://raw.githubusercontent.com/dreamwhite/cv-train-app-data/master/images/57.png"
    },
    {
        "id": 58,
        "name": "Seiano",
        "description": "Stazione di Seiano.",
        "latitude": 40.8568,
        "longitude": 14.3047,
        "image": "https://raw.githubusercontent.com/dreamwhite/cv-train-app-data/master/images/58.png"
    },
    {
        "id": 59,
        "name": "Meta",
        "description": "Stazione di Meta.",
        "latitude": 40.8569,
        "longitude": 14.3048,
        "image": "https://raw.githubusercontent.com/dreamwhite/cv-train-app-data/master/images/59.png"
    },
    {
        "id": 60,
        "name": "Piano di Sorrento",
        "description": "Stazione di Piano di Sorrento.",
        "latitude": 40.8570,
        "longitude": 14.3049,
        "image": "https://raw.githubusercontent.com/dreamwhite/cv-train-app-data/master/images/60.png"
    },
    {
        "id": 61,
        "name": "Sant'Agnello",
        "description": "Stazione di Sant'Agnello.",
        "latitude": 40.8571,
        "longitude": 14.3050,
        "image": "https://raw.githubusercontent.com/dreamwhite/cv-train-app-data/master/images/61.png"
    },
    {
        "id": 62,
        "name": "Sorrento",
        "description": "Stazione di Sorrento.",
        "latitude": 40.8572,
        "longitude": 14.3051,
        "image": "https://raw.githubusercontent.com/dreamwhite/cv-train-app-data/master/images/62.png"
    },
    {
        "id": 63,
        "name": "Poggiorale",
        "description": "Stazione di Poggiorale.",
        "latitude": 40.8573,
        "longitude": 14.3052,
        "image": "https://raw.githubusercontent.com/dreamwhite/cv-train-app-data/master/images/63.png"
    },
    {
        "id": 64,
        "name": "Botteghelle",
        "description": "Stazione di Botteghelle.",
        "latitude": 40.8574,
        "longitude": 14.3053,
        "image": "https://raw.githubusercontent.com/dreamwhite/cv-train-app-data/master/images/64.png"
    },
    {
        "id": 66,
        "name": "Casalnuovo",
        "description": "Stazione di Casalnuovo.",
        "latitude": 40.8575,
        "longitude": 14.3054,
        "image": "https://raw.githubusercontent.com/dreamwhite/cv-train-app-data/master/images/66.png"
    },
    {
        "id": 67,
        "name": "Talona",
        "description": "Stazione di Talona.",
        "latitude": 40.8576,
        "longitude": 14.3055,
        "image": "https://raw.githubusercontent.com/dreamwhite/cv-train-app-data/master/images/67.png"
    },
    {
        "id": 69,
        "name": "Pratola Ponte",
        "description": "Stazione di Pratola Ponte.",
        "latitude": 40.8577,
        "longitude": 14.3056,
        "image": "https://raw.githubusercontent.com/dreamwhite/cv-train-app-data/master/images/69.png"
    },
    {
        "id": 70,
        "name": "Volla",
        "description": "Stazione di Volla.",
        "latitude": 40.8578,
        "longitude": 14.3057,
        "image": "https://raw.githubusercontent.com/dreamwhite/cv-train-app-data/master/images/70.png"
    },
    {
        "id": 71,
        "name": "Castelcisterna",
        "description": "Stazione di Castelcisterna.",
        "latitude": 40.8579,
        "longitude": 14.3058,
        "image": "https://raw.githubusercontent.com/dreamwhite/cv-train-app-data/master/images/71.png"
    },
    {
        "id": 72,
        "name": "Brusciano",
        "description": "Stazione di Brusciano.",
        "latitude": 40.8580,
        "longitude": 14.3059,
        "image": "https://raw.githubusercontent.com/dreamwhite/cv-train-app-data/master/images/72.png"
    },
    {
        "id": 73,
        "name": "Via Vittorio Veneto",
        "description": "Stazione di Via Vittorio Veneto.",
        "latitude": 40.8581,
        "longitude": 14.3060,
        "image": "https://raw.githubusercontent.com/dreamwhite/cv-train-app-data/master/images/73.png"
    },
    {
        "id": 74,
        "name": "Marigliano",
        "description": "Stazione di Marigliano.",
        "latitude": 40.8582,
        "longitude": 14.3061,
        "image": "https://raw.githubusercontent.com/dreamwhite/cv-train-app-data/master/images/74.png"
    },
    {
        "id": 75,
        "name": "San Vitaliano",
        "description": "Stazione di San Vitaliano.",
        "latitude": 40.8583,
        "longitude": 14.3062,
        "image": "https://raw.githubusercontent.com/dreamwhite/cv-train-app-data/master/images/75.png"
    },
    {
        "id": 76,
        "name": "Scisciano",
        "description": "Stazione di Scisciano.",
        "latitude": 40.8584,
        "longitude": 14.3063,
        "image": "https://raw.githubusercontent.com/dreamwhite/cv-train-app-data/master/images/76.png"
    },
    {
        "id": 77,
        "name": "Saviano",
        "description": "Stazione di Saviano.",
        "latitude": 40.8585,
        "longitude": 14.3064,
        "image": "https://raw.githubusercontent.com/dreamwhite/cv-train-app-data/master/images/77.png"
    },
    {
        "id": 78,
        "name": "Nola",
        "description": "Stazione di Nola.",
        "latitude": 40.8586,
        "longitude": 14.3065,
        "image": "https://raw.githubusercontent.com/dreamwhite/cv-train-app-data/master/images/78.png"
    },
    {
        "id": 79,
        "name": "Cimitile",
        "description": "Stazione di Cimitile.",
        "latitude": 40.8587,
        "longitude": 14.3066,
        "image": "https://raw.githubusercontent.com/dreamwhite/cv-train-app-data/master/images/79.png"
    },
    {
        "id": 80,
        "name": "Camposano",
        "description": "Stazione di Camposano.",
        "latitude": 40.8588,
        "longitude": 14.3067,
        "image": "https://raw.githubusercontent.com/dreamwhite/cv-train-app-data/master/images/80.png"
    },
    {
        "id": 81,
        "name": "Cicciano",
        "description": "Stazione di Cicciano.",
        "latitude": 40.8589,
        "longitude": 14.3068,
        "image": "https://raw.githubusercontent.com/dreamwhite/cv-train-app-data/master/images/81.png"
    },
    {
        "id": 82,
        "name": "Roccarainola",
        "description": "Stazione di Roccarainola.",
        "latitude": 40.8590,
        "longitude": 14.3069,
        "image": "https://raw.githubusercontent.com/dreamwhite/cv-train-app-data/master/images/82.png"
    },
    {
        "id": 83,
        "name": "Avella",
        "description": "Stazione di Avella.",
        "latitude": 40.8591,
        "longitude": 14.3070,
        "image": "https://raw.githubusercontent.com/dreamwhite/cv-train-app-data/master/images/83.png"
    },
    {
        "id": 84,
        "name": "Baiano",
        "description": "Stazione di Baiano.",
        "latitude": 40.8592,
        "longitude": 14.3071,
        "image": "https://raw.githubusercontent.com/dreamwhite/cv-train-app-data/master/images/84.png"
    },
    {
        "id": 87,
        "name": "La Pigna",
        "description": "Stazione di La Pigna.",
        "latitude": 40.8593,
        "longitude": 14.3072,
        "image": "https://raw.githubusercontent.com/dreamwhite/cv-train-app-data/master/images/87.png"
    },
    {
        "id": 89,
        "name": "De Ruggiero",
        "description": "Stazione di De Ruggiero.",
        "latitude": 40.8594,
        "longitude": 14.3073,
        "image": "https://raw.githubusercontent.com/dreamwhite/cv-train-app-data/master/images/89.png"
    },
    {
        "id": 90,
        "name": "Centro Direzionale",
        "description": "Stazione di Centro Direzionale.",
        "latitude": 40.8595,
        "longitude": 14.3074,
        "image": "https://raw.githubusercontent.com/dreamwhite/cv-train-app-data/master/images/90.png"
    },
    {
        "id": 91,
        "name": "Bartolo Longo",
        "description": "Stazione di Bartolo Longo.",
        "latitude": 40.8596,
        "longitude": 14.3075,
        "image": "https://raw.githubusercontent.com/dreamwhite/cv-train-app-data/master/images/91.png"
    },
    {
        "id": 92,
        "name": "Vesuvio de Meis (sgv)",
        "description": "Stazione di Vesuvio de Meis (sgv).",
        "latitude": 40.8597,
        "longitude": 14.3076,
        "image": "https://raw.githubusercontent.com/dreamwhite/cv-train-app-data/master/images/92.png"
    },
    {
        "id": 93,
        "name": "Villa Visconti",
        "description": "Stazione di Villa Visconti.",
        "latitude": 40.8598,
        "longitude": 14.3077,
        "image": "https://raw.githubusercontent.com/dreamwhite/cv-train-app-data/master/images/93.png"
    },
    {
        "id": 94,
        "name": "Argine - Palasport",
        "description": "Stazione di Argine - Palasport.",
        "latitude": 40.8599,
        "longitude": 14.3078,
        "image": "https://raw.githubusercontent.com/dreamwhite/cv-train-app-data/master/images/94.png"
    },
    {
        "id": 95,
        "name": "Vesuvio de Meis (sa)",
        "description": "Stazione di Vesuvio de Meis (sa).",
        "latitude": 40.8600,
        "longitude": 14.3079,
        "image": "https://raw.githubusercontent.com/dreamwhite/cv-train-app-data/master/images/95.png"
    },
    {
        "id": 96,
        "name": "Madonnelle",
        "description": "Stazione di Madonnelle.",
        "latitude": 40.8601,
        "longitude": 14.3080,
        "image": "https://raw.githubusercontent.com/dreamwhite/cv-train-app-data/master/images/96.png"
    },
    {
        "id": 97,
        "name": "Salice",
        "description": "Stazione di Salice.",
        "latitude": 40.8602,
        "longitude": 14.3081,
        "image": "https://raw.githubusercontent.com/dreamwhite/cv-train-app-data/master/images/97.png"
    },
    {
        "id": 107,
        "name": "Pozzuoli",
        "description": "Stazione di Pozzuoli.",
        "latitude": 40.8603,
        "longitude": 14.3082,
        "image": "https://raw.githubusercontent.com/dreamwhite/cv-train-app-data/master/images/107.png"
    },
    {
        "id": 109,
        "name": "Quarto",
        "description": "Stazione di Quarto.",
        "latitude": 40.8604,
        "longitude": 14.3083,
        "image": "https://raw.githubusercontent.com/dreamwhite/cv-train-app-data/master/images/109.png"
    }
]
